name,id,lat,lon,cluster,country,birth_rate_country,continent
aba,1,5.43,7.58,1,Nigeria,Nigeria,Africa
kasama,2,-10.21,31.1957,2,Zambia,Zambia,Africa
djibo,3,14.1,-1.65,3,Burkina_Faso,Burkina Faso,Africa
kananga,4,-6.188,21.57,4,Democratic_Republic_of_the_Congo,"Congo, Dem. Rep.",Africa
moine,5,-24.896,32.5,5,Mozambique,Mozambique,Africa
gode,6,5.91,43.6,6,Ethiopia,Ethiopia,Africa
karen,7,17.4116,98.0511,1,Myanmar,Myanmar,Asia
bajonapo,8,-0.7292,-75.6459,1,Ecuador,Ecuador,Americas
